Organization name,Phone no.,Latitude,Longitude
Bir Hospital,9841798250,27.704825196592,85.313629604366
Kathmandu Valley Hospital,98432229222,22.702559441293,82.320115702365
Civil Service Hospital of Nepal,9842549499,23.686493059381,83.338911093338
Venus Hospital,9880231720,24.697387789903,84.33775372544
Vayodha Hospital,9873222455,27.684393808961,81.298402729238
Grande City Hospital,9768843456,27.753024739995,88.325932076889
Teaching Hospital,9801346789,27.687387543744,85.341434167468
Kathmandu Hospital,9846123405,21.694237999246,84.311280756532
Kathmandu Neuro & General Hospital,9843111234,27.699248576549,85.312367051061
